[
	{ "city": "Tokyo", "country": "Japan", "lat": "35.6762", "lon": "139.6503", "population": "13960000" },
	{ "city": "Delhi", "country": "India", "lat": "28.7041", "lon": "77.1025", "population": "11030000" },
	{ "city": "Shanghai", "country": "China", "lat": "31.2304", "lon": "121.4737", "population": "24870000" },
	{ "city": "Sao Paulo", "country": "Brazil", "lat": "-23.5505", "lon": "-46.6333", "population": "12330000" },
	{ "city": "Mexico City", "country": "Mexico", "lat": "19.4326", "lon": "-99.1332", "population": "9210000" },
	{ "city": "Cairo", "country": "Egypt", "lat": "30.0444", "lon": "31.2357", "population": "10230000" },
	{ "city": "Mumbai", "country": "India", "lat": "19.076", "lon": "72.8777", "population": "12440000" },
	{ "city": "Beijing", "country": "China", "lat": "39.9042", "lon": "116.4074", "population": "21540000" },
	{ "city": "Dhaka", "country": "Bangladesh", "lat": "23.8103", "lon": "90.4125", "population": "8910000" },
	{ "city": "Osaka", "country": "Japan", "lat": "34.6937", "lon": "135.5023", "population": "2750000" },
	{ "city": "Karachi", "country": "Pakistan", "lat": "24.8607", "lon": "67.0011", "population": "14910000" },
	{ "city": "Istanbul", "country": "Turkey", "lat": "41.0082", "lon": "28.9784", "population": "15460000" },
	{ "city": "Chongqing", "country": "China", "lat": "29.4316", "lon": "106.9123", "population": "8270000" },
	{ "city": "Buenos Aires", "country": "Argentina", "lat": "-34.6037", "lon": "-58.3816", "population": "3060000" },
	{ "city": "Kolkata", "country": "India", "lat": "22.5726", "lon": "88.3639", "population": "4500000" },
	{ "city": "Lagos", "country": "Nigeria", "lat": "6.5244", "lon": "3.3792", "population": "15400000" },
	{ "city": "Kinshasa", "country": "DR Congo", "lat": "-4.4419", "lon": "15.2663", "population": "14340000" },
	{ "city": "Manila", "country": "Philippines", "lat": "14.5995", "lon": "120.9842", "population": "1780000" },
	{ "city": "Tianjin", "country": "China", "lat": "39.3434", "lon": "117.3616", "population": "13870000" },
	{ "city": "Guangzhou", "country": "China", "lat": "23.1291", "lon": "113.2644", "population": "18680000" },
	{ "city": "Rio de Janeiro", "country": "Brazil", "lat": "-22.9068", "lon": "-43.1729", "population": "6750000" },
	{ "city": "Lahore", "country": "Pakistan", "lat": "31.5204", "lon": "74.3587", "population": "11130000" },
	{ "city": "Bangalore", "country": "India", "lat": "12.9716", "lon": "77.5946", "population": "8440000" },
	{ "city": "Moscow", "country": "Russia", "lat": "55.7558", "lon": "37.6173", "population": "12680000" },
	{ "city": "Shenzhen", "country": "China", "lat": "22.5431", "lon": "114.0579", "population": "12590000" },
	{ "city": "Chennai", "country": "India", "lat": "13.0827", "lon": "80.2707", "population": "4680000" },
	{ "city": "Bogota", "country": "Colombia", "lat": "4.711", "lon": "-74.0721", "population": "7410000" },
	{ "city": "Jakarta", "country": "Indonesia", "lat": "-6.2088", "lon": "106.8456", "population": "10560000" },
	{ "city": "Lima", "country": "Peru", "lat": "-12.0464", "lon": "-77.0428", "population": "10880000" },
	{ "city": "Bangkok", "country": "Thailand", "lat": "13.7563", "lon": "100.5018", "population": "10540000" },
	{ "city": "Seoul", "country": "South Korea", "lat": "37.5665", "lon": "126.978", "population": "9770000" },
	{ "city": "Hyderabad", "country": "India", "lat": "17.385", "lon": "78.4867", "population": "6810000" },
	{ "city": "Nagoya", "country": "Japan", "lat": "35.1815", "lon": "136.9066", "population": "2300000" },
	{ "city": "London", "country": "United Kingdom", "lat": "51.5074", "lon": "-0.1278", "population": "8980000" },
	{ "city": "Chengdu", "country": "China", "lat": "30.5728", "lon": "104.0668", "population": "16330000" },
	{ "city": "Tehran", "country": "Iran", "lat": "35.6892", "lon": "51.389", "population": "8690000" },
	{ "city": "Nanjing", "country": "China", "lat": "32.0603", "lon": "118.7969", "population": "8510000" },
	{ "city": "Ho Chi Minh City", "country": "Vietnam", "lat": "10.8231", "lon": "106.6297", "population": "8990000" },
	{ "city": "Luanda", "country": "Angola", "lat": "-8.839", "lon": "13.2894", "population": "8330000" },
	{ "city": "Wuhan", "country": "China", "lat": "30.5928", "lon": "114.3055", "population": "11080000" },
	{ "city": "Ahmedabad", "country": "India", "lat": "23.0225", "lon": "72.5714", "population": "5570000" },
	{ "city": "Kuala Lumpur", "country": "Malaysia", "lat": "3.139", "lon": "101.6869", "population": "1770000" },
	{ "city": "Hangzhou", "country": "China", "lat": "30.2741", "lon": "120.1551", "population": "10360000" },
	{ "city": "Surat", "country": "India", "lat": "21.1702", "lon": "72.8311", "population": "4460000" },
	{ "city": "Xi'an", "country": "China", "lat": "34.3416", "lon": "108.9398", "population": "8710000" },
	{ "city": "Hong Kong", "country": "China", "lat": "22.3193", "lon": "114.1694", "population": "7480000" },
	{ "city": "Dongguan", "country": "China", "lat": "23.0489", "lon": "113.7447", "population": "8340000" },
	{ "city": "Foshan", "country": "China", "lat": "23.0218", "lon": "113.1218", "population": "7200000" },
	{ "city": "Riyadh", "country": "Saudi Arabia", "lat": "24.7136", "lon": "46.6753", "population": "6920000" },
	{ "city": "Dar es Salaam", "country": "Tanzania", "lat": "-6.7924", "lon": "39.2083", "population": "4360000" },
	{ "city": "Suzhou", "country": "China", "lat": "31.2989", "lon": "120.5853", "population": "10720000" },
	{ "city": "Baghdad", "country": "Iraq", "lat": "33.3152", "lon": "44.3661", "population": "7660000" },
	{ "city": "Santiago", "country": "Chile", "lat": "-33.4489", "lon": "-70.6693", "population": "5610000" },
	{ "city": "Pune", "country": "India", "lat": "18.5204", "lon": "73.8567", "population": "3120000" },
	{ "city": "Madrid", "country": "Spain", "lat": "40.4168", "lon": "-3.7038", "population": "3220000" },
	{ "city": "Harbin", "country": "China", "lat": "45.8038", "lon": "126.535", "population": "5310000" },
	{ "city": "Houston", "country": "United States", "lat": "29.7604", "lon": "-95.3698", "population": "2300000" },
	{ "city": "Dallas", "country": "United States", "lat": "32.7767", "lon": "-96.797", "population": "1300000" },
	{ "city": "Toronto", "country": "Canada", "lat": "43.6532", "lon": "-79.3832", "population": "2730000" },
	{ "city": "Belo Horizonte", "country": "Brazil", "lat": "-19.9167", "lon": "-43.9345", "population": "2520000" },
	{ "city": "Khartoum", "country": "Sudan", "lat": "15.5007", "lon": "32.5599", "population": "5130000" },
	{ "city": "Zhengzhou", "country": "China", "lat": "34.7466", "lon": "113.6254", "population": "10120000" },
	{ "city": "Changsha", "country": "China", "lat": "28.2282", "lon": "112.9388", "population": "10080000" },
	{ "city": "Johannesburg", "country": "South Africa", "lat": "-26.2041", "lon": "28.0473", "population": "5780000" },
	{ "city": "Singapore", "country": "Singapore", "lat": "1.3521", "lon": "103.8198", "population": "5690000" },
	{ "city": "Barcelona", "country": "Spain", "lat": "41.3851", "lon": "2.1734", "population": "1620000" },
	{ "city": "Dalian", "country": "China", "lat": "38.914", "lon": "121.6147", "population": "7490000" },
	{ "city": "Qingdao", "country": "China", "lat": "36.0671", "lon": "120.3826", "population": "10070000" },
	{ "city": "Paris", "country": "France", "lat": "48.8566", "lon": "2.3522", "population": "2160000" },
	{ "city": "Alexandria", "country": "Egypt", "lat": "31.2001", "lon": "29.9187", "population": "5200000" },
	{ "city": "Medellin", "country": "Colombia", "lat": "6.2476", "lon": "-75.5658", "population": "2530000" },
	{ "city": "Fukuoka", "country": "Japan", "lat": "33.5904", "lon": "130.4017", "population": "1600000" },
	{ "city": "Accra", "country": "Ghana", "lat": "5.6037", "lon": "-0.187", "population": "2270000" },
	{ "city": "Addis Ababa", "country": "Ethiopia", "lat": "9.02", "lon": "38.7469", "population": "3350000" },
	{ "city": "Nairobi", "country": "Kenya", "lat": "-1.2921", "lon": "36.8219", "population": "4400000" },
	{ "city": "Berlin", "country": "Germany", "lat": "52.52", "lon": "13.405", "population": "3650000" },
	{ "city": "Sydney", "country": "Australia", "lat": "-33.8688", "lon": "151.2093", "population": "5310000" },
	{ "city": "Melbourne", "country": "Australia", "lat": "-37.8136", "lon": "144.9631", "population": "5080000" },
	{ "city": "Casablanca", "country": "Morocco", "lat": "33.5731", "lon": "-7.5898", "population": "3710000" },
	{ "city": "Rome", "country": "Italy", "lat": "41.9028", "lon": "12.4964", "population": "2870000" },
	{ "city": "New York", "country": "United States", "lat": "40.7128", "lon": "-74.006", "population": "8340000" },
	{ "city": "Los Angeles", "country": "United States", "lat": "34.0522", "lon": "-118.2437", "population": "3970000" },
	{ "city": "Chicago", "country": "United States", "lat": "41.8781", "lon": "-87.6298", "population": "2700000" },
	{ "city": "Miami", "country": "United States", "lat": "25.7617", "lon": "-80.1918", "population": "470000" },
	{ "city": "San Francisco", "country": "United States", "lat": "37.7749", "lon": "-122.4194", "population": "870000" },
	{ "city": "Washington DC", "country": "United States", "lat": "38.9072", "lon": "-77.0369", "population": "690000" },
	{ "city": "Lagos de Moreno", "country": "Mexico", "lat": "21.3545", "lon": "-101.9405", "population": "160000" },
	{ "city": "Kunming", "country": "China", "lat": "25.0389", "lon": "102.7183", "population": "8460000" },
	{ "city": "Brasilia", "country": "Brazil", "lat": "-15.7975", "lon": "-47.8919", "population": "3050000" },
	{ "city": "Abidjan", "country": "Ivory Coast", "lat": "5.3599", "lon": "-4.0083", "population": "4400000" },
	{ "city": "Jeddah", "country": "Saudi Arabia", "lat": "21.4858", "lon": "39.1925", "population": "4080000" },
	{ "city": "Ankara", "country": "Turkey", "lat": "39.9208", "lon": "32.8541", "population": "5450000" },
	{ "city": "Dubai", "country": "UAE", "lat": "25.2048", "lon": "55.2708", "population": "3330000" },
	{ "city": "Cape Town", "country": "South Africa", "lat": "-33.9249", "lon": "18.4241", "population": "4620000" },
	{ "city": "Kiev", "country": "Ukraine", "lat": "50.4501", "lon": "30.5234", "population": "2960000" },
	{ "city": "Warsaw", "country": "Poland", "lat": "52.2297", "lon": "21.0122", "population": "1790000" },
	{ "city": "Amsterdam", "country": "Netherlands", "lat": "52.3676", "lon": "4.9041", "population": "870000" },
	{ "city": "Algiers", "country": "Algeria", "lat": "36.7538", "lon": "3.0588", "population": "2700000" },
	{ "city": "Kabul", "country": "Afghanistan", "lat": "34.5553", "lon": "69.2075", "population": "4220000" },
	{ "city": "Taipei", "country": "Taiwan", "lat": "25.033", "lon": "121.5654", "population": "2650000" },
	{ "city": "Manila Metro", "country": "Philippines", "lat": "14.5547", "lon": "121.0244", "population": "13920000" },
	{ "city": "Hanoi", "country": "Vietnam", "lat": "21.0278", "lon": "105.8342", "population": "4680000" },
	{ "city": "Yangon", "country": "Myanmar", "lat": "16.8661", "lon": "96.1951", "population": "5310000" },
	{ "city": "Minsk", "country": "Belarus", "lat": "53.9006", "lon": "27.5590", "population": "1980000" },
	{ "city": "Budapest", "country": "Hungary", "lat": "47.4979", "lon": "19.0402", "population": "1750000" },
	{ "city": "Vienna", "country": "Austria", "lat": "48.2082", "lon": "16.3738", "population": "1900000" },
	{ "city": "Milan", "country": "Italy", "lat": "45.4642", "lon": "9.1900", "population": "1370000" },
	{ "city": "Munich", "country": "Germany", "lat": "48.1351", "lon": "11.582", "population": "1470000" },
	{ "city": "Prague", "country": "Czech Republic", "lat": "50.0755", "lon": "14.4378", "population": "1310000" },
	{ "city": "Brussels", "country": "Belgium", "lat": "50.8503", "lon": "4.3517", "population": "1210000" },
	{ "city": "Stockholm", "country": "Sweden", "lat": "59.3293", "lon": "18.0686", "population": "980000" },
	{ "city": "Lisbon", "country": "Portugal", "lat": "38.7223", "lon": "-9.1393", "population": "550000" },
	{ "city": "Dublin", "country": "Ireland", "lat": "53.3498", "lon": "-6.2603", "population": "550000" },
	{ "city": "Helsinki", "country": "Finland", "lat": "60.1695", "lon": "24.9354", "population": "650000" },
	{ "city": "Oslo", "country": "Norway", "lat": "59.9139", "lon": "10.7522", "population": "690000" },
	{ "city": "Copenhagen", "country": "Denmark", "lat": "55.6761", "lon": "12.5683", "population": "790000" },
	{ "city": "Auckland", "country": "New Zealand", "lat": "-36.8485", "lon": "174.7633", "population": "1660000" },
	{ "city": "Vancouver", "country": "Canada", "lat": "49.2827", "lon": "-123.1207", "population": "630000" },
	{ "city": "Montreal", "country": "Canada", "lat": "45.5017", "lon": "-73.5673", "population": "1760000" },
	{ "city": "Seattle", "country": "United States", "lat": "47.6062", "lon": "-122.3321", "population": "750000" },
	{ "city": "Denver", "country": "United States", "lat": "39.7392", "lon": "-104.9903", "population": "720000" },
	{ "city": "Philadelphia", "country": "United States", "lat": "39.9526", "lon": "-75.1652", "population": "1580000" },
	{ "city": "Atlanta", "country": "United States", "lat": "33.749", "lon": "-84.388", "population": "500000" },
	{ "city": "Phoenix", "country": "United States", "lat": "33.4484", "lon": "-112.074", "population": "1680000" },
	{ "city": "Detroit", "country": "United States", "lat": "42.3314", "lon": "-83.0458", "population": "640000" },
	{ "city": "Boston", "country": "United States", "lat": "42.3601", "lon": "-71.0589", "population": "680000" },
	{ "city": "Minneapolis", "country": "United States", "lat": "44.9778", "lon": "-93.265", "population": "430000" },
	{ "city": "Portland", "country": "United States", "lat": "45.5231", "lon": "-122.6765", "population": "650000" },
	{ "city": "Havana", "country": "Cuba", "lat": "23.1136", "lon": "-82.3666", "population": "2130000" },
	{ "city": "Quito", "country": "Ecuador", "lat": "-0.1807", "lon": "-78.4678", "population": "1770000" },
	{ "city": "Caracas", "country": "Venezuela", "lat": "10.4806", "lon": "-66.9036", "population": "2940000" },
	{ "city": "Montevideo", "country": "Uruguay", "lat": "-34.9011", "lon": "-56.1645", "population": "1380000" },
	{ "city": "Asuncion", "country": "Paraguay", "lat": "-25.2637", "lon": "-57.5759", "population": "530000" },
	{ "city": "La Paz", "country": "Bolivia", "lat": "-16.4897", "lon": "-68.1193", "population": "810000" },
	{ "city": "Panama City", "country": "Panama", "lat": "8.9824", "lon": "-79.5199", "population": "880000" },
	{ "city": "San Jose", "country": "Costa Rica", "lat": "9.9281", "lon": "-84.0907", "population": "350000" },
	{ "city": "Guatemala City", "country": "Guatemala", "lat": "14.6349", "lon": "-90.5069", "population": "990000" },
	{ "city": "Kingston", "country": "Jamaica", "lat": "18.0179", "lon": "-76.8099", "population": "580000" },
	{ "city": "Port-au-Prince", "country": "Haiti", "lat": "18.5944", "lon": "-72.3074", "population": "2770000" },
	{
		"city": "Santo Domingo",
		"country": "Dominican Republic",
		"lat": "18.4861",
		"lon": "-69.9312",
		"population": "1030000"
	},
	{ "city": "Managua", "country": "Nicaragua", "lat": "12.1364", "lon": "-86.2514", "population": "1050000" },
	{ "city": "Tegucigalpa", "country": "Honduras", "lat": "14.072", "lon": "-87.1921", "population": "1150000" },
	{ "city": "San Salvador", "country": "El Salvador", "lat": "13.6929", "lon": "-89.2182", "population": "570000" },
	{ "city": "Belmopan", "country": "Belize", "lat": "17.2510", "lon": "-88.7590", "population": "20000" },
	{ "city": "Dakar", "country": "Senegal", "lat": "14.7167", "lon": "-17.4677", "population": "1150000" },
	{ "city": "Bamako", "country": "Mali", "lat": "12.6392", "lon": "-8.0029", "population": "2530000" },
	{ "city": "Ouagadougou", "country": "Burkina Faso", "lat": "12.3714", "lon": "-1.5197", "population": "2200000" },
	{ "city": "Niamey", "country": "Niger", "lat": "13.5127", "lon": "2.1128", "population": "1010000" },
	{ "city": "Abuja", "country": "Nigeria", "lat": "9.0765", "lon": "7.3986", "population": "3460000" },
	{ "city": "Yaound\u00e9", "country": "Cameroon", "lat": "3.848", "lon": "11.5021", "population": "2760000" },
	{ "city": "Libreville", "country": "Gabon", "lat": "0.4162", "lon": "9.4673", "population": "700000" },
	{ "city": "Brazzaville", "country": "Congo", "lat": "-4.2634", "lon": "15.2429", "population": "2390000" },
	{ "city": "Lusaka", "country": "Zambia", "lat": "-15.3875", "lon": "28.3228", "population": "2540000" },
	{ "city": "Harare", "country": "Zimbabwe", "lat": "-17.8252", "lon": "31.0335", "population": "1530000" },
	{ "city": "Maputo", "country": "Mozambique", "lat": "-25.9692", "lon": "32.5732", "population": "1100000" },
	{ "city": "Antananarivo", "country": "Madagascar", "lat": "-18.8792", "lon": "47.5079", "population": "1390000" },
	{ "city": "Kampala", "country": "Uganda", "lat": "0.3476", "lon": "32.5825", "population": "1680000" },
	{ "city": "Kigali", "country": "Rwanda", "lat": "-1.9403", "lon": "29.8739", "population": "1130000" },
	{ "city": "Doha", "country": "Qatar", "lat": "25.2854", "lon": "51.531", "population": "960000" },
	{ "city": "Muscat", "country": "Oman", "lat": "23.5880", "lon": "58.3829", "population": "800000" },
	{ "city": "Kuwait City", "country": "Kuwait", "lat": "29.3759", "lon": "47.9774", "population": "2990000" },
	{ "city": "Beirut", "country": "Lebanon", "lat": "33.8938", "lon": "35.5018", "population": "360000" },
	{ "city": "Amman", "country": "Jordan", "lat": "31.9454", "lon": "35.9284", "population": "2060000" },
	{ "city": "Damascus", "country": "Syria", "lat": "33.5138", "lon": "36.2765", "population": "1710000" },
	{ "city": "Tashkent", "country": "Uzbekistan", "lat": "41.2995", "lon": "69.2401", "population": "2490000" },
	{ "city": "Almaty", "country": "Kazakhstan", "lat": "43.2551", "lon": "76.9126", "population": "1920000" },
	{ "city": "Baku", "country": "Azerbaijan", "lat": "40.4093", "lon": "49.8671", "population": "2300000" },
	{ "city": "Tbilisi", "country": "Georgia", "lat": "41.7151", "lon": "44.8271", "population": "1080000" },
	{ "city": "Yerevan", "country": "Armenia", "lat": "40.1792", "lon": "44.4991", "population": "1080000" },
	{ "city": "Colombo", "country": "Sri Lanka", "lat": "6.9271", "lon": "79.8612", "population": "750000" },
	{ "city": "Kathmandu", "country": "Nepal", "lat": "27.7172", "lon": "85.324", "population": "1000000" },
	{ "city": "Ulaanbaatar", "country": "Mongolia", "lat": "47.8864", "lon": "106.9057", "population": "1540000" },
	{ "city": "Pyongyang", "country": "North Korea", "lat": "39.0392", "lon": "125.7625", "population": "3250000" },
	{ "city": "Perth", "country": "Australia", "lat": "-31.9505", "lon": "115.8605", "population": "2060000" },
	{ "city": "Brisbane", "country": "Australia", "lat": "-27.4698", "lon": "153.0251", "population": "2440000" },
	{ "city": "Wellington", "country": "New Zealand", "lat": "-41.2865", "lon": "174.7762", "population": "210000" },
	{ "city": "Surabaya", "country": "Indonesia", "lat": "-7.2575", "lon": "112.7521", "population": "2880000" },
	{ "city": "Bandung", "country": "Indonesia", "lat": "-6.9175", "lon": "107.6191", "population": "2440000" },
	{ "city": "Medan", "country": "Indonesia", "lat": "3.5952", "lon": "98.6722", "population": "2210000" }
]
